<?xml version="1.0" encoding="utf-8"?>
<ArrayOfCustomer xmlns:xsi="http://www.w3.org/2001/XMLSchema-instance" xmlns:xsd="http://www.w3.org/2001/XMLSchema">
  <Customer>
    <Id>1742774555</Id>
    <Name>Dror</Name>
    <Phone>0569336469</Phone>
    <Longitude>27.5543106755029</Longitude>
    <Lattitude>-41.57258243838911</Lattitude>
  </Customer>
  <Customer>
    <Id>102975507</Id>
    <Name>Yair</Name>
    <Phone>0533453989</Phone>
    <Longitude>36.30465130149604</Longitude>
    <Lattitude>41.05229055092311</Lattitude>
  </Customer>
  <Customer>
    <Id>402906059</Id>
    <Name>Ofir1</Name>
    <Phone>0561872479</Phone>
    <Longitude>16.679975500646968</Longitude>
    <Lattitude>-88.7075997976156</Lattitude>
  </Customer>
  <Customer>
    <Id>530003596</Id>
    <Name>Gil</Name>
    <Phone>0581669047</Phone>
    <Longitude>149.78468476318972</Longitude>
    <Lattitude>-6.479474807381385</Lattitude>
  </Customer>
  <Customer>
    <Id>1253361210</Id>
    <Name>Benaya</Name>
    <Phone>0591920318</Phone>
    <Longitude>73.68033062372372</Longitude>
    <Lattitude>-21.070228294036458</Lattitude>
  </Customer>
  <Customer>
    <Id>242844247</Id>
    <Name>Ohad</Name>
    <Phone>0541342203</Phone>
    <Longitude>30.905517773193083</Longitude>
    <Lattitude>46.27354257566553</Lattitude>
  </Customer>
  <Customer>
    <Id>478277830</Id>
    <Name>Michael</Name>
    <Phone>0572480471</Phone>
    <Longitude>178.01588097494835</Longitude>
    <Lattitude>-65.05726597041695</Lattitude>
  </Customer>
  <Customer>
    <Id>722040117</Id>
    <Name>Achiya</Name>
    <Phone>0570931918</Phone>
    <Longitude>111.51385321818006</Longitude>
    <Lattitude>-4.335491724468531</Lattitude>
  </Customer>
  <Customer>
    <Id>1631242782</Id>
    <Name>Drew</Name>
    <Phone>0587034095</Phone>
    <Longitude>71.00048086186894</Longitude>
    <Lattitude>-21.16499886902282</Lattitude>
  </Customer>
  <Customer>
    <Id>1368147114</Id>
    <Name>Shilo</Name>
    <Phone>0588034512</Phone>
    <Longitude>105.71399120880012</Longitude>
    <Lattitude>-38.962812385970174</Lattitude>
  </Customer>
  <Customer>
    <Id>1</Id>
    <Name>1</Name>
    <Phone>1</Phone>
    <Longitude>0</Longitude>
    <Lattitude>0</Lattitude>
  </Customer>
  <Customer>
    <Id>2</Id>
    <Name>2</Name>
    <Phone>2</Phone>
    <Longitude>0</Longitude>
    <Lattitude>0</Lattitude>
  </Customer>
</ArrayOfCustomer>